{
  "department": [
    "Commissioners' Office",
    "County Attorney",
    "County Manager's Office",
    "Accreditation",
    "Agenda Office",
    "Animal Services",
    "Civil Courthouse",
    "Civil Sheriff",
    "Communications Office",
    "Conservation Lands",
    "Court Services",
    "Community Support Services",
    "Criminal Courthouse",
    "Equal Opportunity",
    "Economic Development",
    "Environmental Protection",
    "Equestrian Center",
    "Facilities Management",
    "Finance & Accounting",
    "Fire/Rescue",
    "Growth Management",
    "Guardian Ad Litem",
    "Human Resources",
    "Information & Telecom",
    "Library",
    "Office of Management & Budget",
    "Organization Training & Behavior",
    "Parks and Open Spaces",
    "Procurement",
    "Property Appraiser",
    "Public Defender",
    "Public Works",
    "Risk Management",
    "Supervisor of Elections",
    "Solid Waste Recovery",
    "Sheriff's Office",
    "State Attorney",
    "Sustainability",
    "Tax Collector",
    "UF/IFAS Extension",
    "Other (Explain under Description of Issue)"
  ],
  "building": [
    {
      "label": "Administration Building",
      "address": "12 SE 1st Street",
      "city": "Gainesville",
      "zipcode": "32601",
      "latitude": "29.6514860000000",
      "longitude": "-82.3239620000000"
    },
    {
      "label": "Administration-Annex",
      "address": "120 S Main St ",
      "city": "Gainesville",
      "zipcode": "32602",
      "latitude": "29.6504320000000",
      "longitude": "-82.3249940000000"
    },
    {
      "check": true,
      "label": "Agricultural Center",
      "address": "23100 W Newberry Rd",
      "city": "Newberry",
      "zipcode": "32669",
      "latitude": "29.656530",
      "longitude": "-82.586130"
    },
    {
      "label": "Animal Shelter",
      "address": "3400 NE 53rd Ave ",
      "city": "Gainesville",
      "zipcode": "32601",
      "latitude": "29.7041695000000",
      "longitude": "-82.2816944000000"
    },
    {
      "label": "Civil Courthouse",
      "address": "201 E. University Avenue",
      "city": "Gainesville",
      "zipcode": "32602",
      "latitude": "29.6515060000000",
      "longitude": "-82.3228450000000"
    },
    {
      "label": "Collection Center-Archer",
      "address": "19401 SW Archer Rd",
      "city": "Archer",
      "zipcode": "32618",
      "latitude": "29.5129180000000",
      "longitude": "-82.5472140000000"
    },
    {
      "label": "Collection Center-Fairbanks",
      "address": "9920 NE Waldo Rd",
      "city": "Gainesville",
      "zipcode": "32615",
      "latitude": "29.7456092500000",
      "longitude": "-82.2284280320000"
    },
    {
      "label": "Collection Center-High Springs",
      "address": "16929 NW Hwy 441",
      "city": "High Springs",
      "zipcode": "32643",
      "latitude": "29.8104233890001",
      "longitude": "-82.5562309109999"
    },
    {
      "label": "Collection Center-LaCrosse",
      "address": "10714 State Road 121",
      "city": "LaCrosse",
      "zipcode": "32615",
      "latitude": "",
      "longitude": ""
    },
    {
      "label": "Collection Center-Phifer",
      "address": "11700 SE Hawthorne Rd",
      "city": "Gainesville",
      "zipcode": "32641",
      "latitude": "29.6006295460001",
      "longitude": "-82.1952340550000"
    },
    {
      "label": "Community Support/Health Dept.",
      "address": "218 SE 24th Street",
      "city": "Gainesville",
      "zipcode": "32641",
      "latitude": "29.649100",
      "longitude": "-82.294970"
    },
    {
      "label": "CPC Tax Collector Driver's License",
      "address": "5830 NW 34th Blvd",
      "city": "Gainesville",
      "zipcode": "32653",
      "latitude": "29.710270",
      "longitude": "-82.354910"
    },
    {
      "label": "Criminal Courthouse",
      "address": "220 S Main St",
      "city": "Gainesville",
      "zipcode": "32601",
      "latitude": "29.6486790000000",
      "longitude": "-82.3254420000000"
    },
    {
      "label": "Day Reporting/Drug Court",
      "address": "249 West University Avenue",
      "city": "Gainesville",
      "zipcode": "32601",
      "latitude": "29.6517160000000",
      "longitude": "-82.3277035000000"
    },
    {
      "label": "Environ. Field Support Bldg.",
      "address": "602 SE 9th Place",
      "city": "Gainesville",
      "zipcode": "32601",
      "latitude": "29.642600",
      "longitude": "-82.318200"
    },
    {
      "label": "Facilities Shop",
      "address": "915 SE 5th Street",
      "city": "Gainesville",
      "zipcode": "32601",
      "latitude": "29.6425342000000",
      "longitude": "-82.3192259000000"
    },
    {
      "label": "Facilities Training/Clerk Surplus Bldg.",
      "address": "935 SE 5th Street",
      "city": "Gainesville",
      "zipcode": "",
      "latitude": "29.6423376000000",
      "longitude": "-82.3191337000000"
    },
    {
      "label": "Fairgrounds-Exhibit Hall",
      "address": "3100 NE 39th Ave",
      "city": "Gainesville",
      "zipcode": "32609",
      "latitude": "",
      "longitude": ""
    },
    {
      "label": "Fairgrounds-Front Gate",
      "address": "",
      "city": "",
      "zipcode": "",
      "latitude": "",
      "longitude": ""
    },
    {
      "label": "Fairgrounds-Pole Barn",
      "address": "",
      "city": "",
      "zipcode": "",
      "latitude": "",
      "longitude": ""
    },
    {
      "label": "Farmer's Market",
      "address": "5920 NW 13th St",
      "city": "Gainesville",
      "zipcode": "32653",
      "latitude": "29.7099321",
      "longitude": "-82.3532951"
    },
    {
      "label": "Guardian Ad Litem",
      "address": "14 S. Main Street",
      "city": "Gainesville",
      "zipcode": "32601",
      "latitude": "29.651418",
      "longitude": "-82.325462"
    },
    {
      "label": "Josiah T. Walls Bldg.",
      "address": "",
      "city": "",
      "zipcode": "",
      "latitude": "",
      "longitude": ""
    },
    {
      "label": "Leveda-Administration",
      "address": "",
      "city": "",
      "zipcode": "",
      "latitude": "",
      "longitude": ""
    },
    {
      "label": "Leveda-Fleet Bldg.",
      "address": "",
      "city": "",
      "zipcode": "",
      "latitude": "",
      "longitude": ""
    },
    {
      "label": "Leveda-Hazardous Waste Storage",
      "address": "",
      "city": "",
      "zipcode": "",
      "latitude": "",
      "longitude": ""
    },
    {
      "label": "Leveda-Recovery Materials",
      "address": "",
      "city": "",
      "zipcode": "",
      "latitude": "",
      "longitude": ""
    },
    {
      "label": "Leveda-Scale House",
      "address": "",
      "city": "",
      "zipcode": "",
      "latitude": "",
      "longitude": ""
    },
    {
      "label": "Leveda-Transfer Station",
      "address": "",
      "city": "",
      "zipcode": "",
      "latitude": "",
      "longitude": ""
    },
    {
      "label": "Main St. Center Bldg.",
      "address": "",
      "city": "",
      "zipcode": "",
      "latitude": "",
      "longitude": ""
    },
    {
      "label": "Metamorphosis",
      "address": "",
      "city": "",
      "zipcode": "",
      "latitude": "",
      "longitude": ""
    },
    {
      "label": "Public Defender Building",
      "address": "",
      "city": "",
      "zipcode": "",
      "latitude": "",
      "longitude": ""
    },
    {
      "label": "Record Storage",
      "address": "",
      "city": "",
      "zipcode": "",
      "latitude": "",
      "longitude": ""
    },
    {
      "label": "Seagle Building-EPD",
      "address": "",
      "city": "",
      "zipcode": "",
      "latitude": "",
      "longitude": ""
    },
    {
      "label": "State Attorney",
      "address": "",
      "city": "",
      "zipcode": "",
      "latitude": "",
      "longitude": ""
    },
    {
      "label": "SWAG-Health Clinic",
      "address": "",
      "city": "",
      "zipcode": "",
      "latitude": "",
      "longitude": ""
    },
    {
      "label": "SWAG-Resource Center",
      "address": "",
      "city": "",
      "zipcode": "",
      "latitude": "",
      "longitude": ""
    },
    {
      "label": "Tag Agency-34th St.",
      "address": "",
      "city": "",
      "zipcode": "",
      "latitude": "",
      "longitude": ""
    },
    {
      "label": "Tag Agency-Butler Plaza",
      "address": "",
      "city": "",
      "zipcode": "",
      "latitude": "",
      "longitude": ""
    },
    {
      "label": "Vet. Memorial Park-Freedom Center",
      "address": "",
      "city": "",
      "zipcode": "",
      "latitude": "",
      "longitude": ""
    },
    {
      "label": "Wilson Building",
      "address": "",
      "city": "",
      "zipcode": "",
      "latitude": "",
      "longitude": ""
    },
    {
      "label": "Work Release",
      "address": "",
      "city": "",
      "zipcode": "",
      "latitude": "",
      "longitude": ""
    },
    {
      "label": "Other (Explain in Add'l Location Information)",
      "address": "",
      "city": "",
      "zipcode": "",
      "latitude": "",
      "longitude": ""
    }
  ]
}
